[
  {"id":1,"name":"ČS Plzeň, Domažlická","lat":49.7364283,"lng":13.330928},
  {"id":2,"name":"ČS Nýřany","lat":49.7143517,"lng":13.1829904},
  {"id":3,"name":"ČS Plzeň, Studentská","lat":49.7751277,"lng":13.3605691},
  {"id":4,"name":"ČS Sokolov","lat":50.163862,"lng":12.6647554},
  {"id":5,"name":"ČS Teplice","lat":50.6508979,"lng":13.8331188},
  {"id":6,"name":"ČS Cheb","lat":50.0844837,"lng":12.4622164},
  {"id":7,"name":"ČS Milovice u Hořic","lat":50.324795,"lng":15.6377472},
  {"id":8,"name":"ČS Chlumec","lat":50.6967927,"lng":13.9429392},
  {"id":9,"name":"ČS Jihlava","lat":49.3894783,"lng":15.5751928},
  {"id":10,"name":"ČS Trutnov","lat":50.5467516,"lng":15.9094871},
  {"id":11,"name":"ČS Jindřichův Hradec","lat":49.1310672,"lng":15.0173792},
  {"id":12,"name":"ČS Vysoké Mýto","lat":49.9175285,"lng":16.1779029},
  {"id":13,"name":"ČS Havraň","lat":50.4489057,"lng":13.5989066},
  {"id":14,"name":"ČS Kolaje u Poděbrad","lat":50.1534648,"lng":15.2404369},
  {"id":15,"name":"ČS Ústí n. L., Božtěšická","lat":50.6839568,"lng":14.0164675},
  {"id":16,"name":"ČS Praha, Dolní Měcholupy","lat":50.0498523,"lng":14.5693083},
  {"id":17,"name":"ČS Kbelnice","lat":49.2935005,"lng":13.9816598},
  {"id":18,"name":"ČS Havlovice u Domažlic","lat":49.4185099,"lng":12.874376},
  {"id":19,"name":"ČS Mělník","lat":50.3410159,"lng":14.4997254},
  {"id":20,"name":"ČS Krupá u Rakovníka","lat":50.1690735,"lng":13.7439605},
  {"id":21,"name":"ČS Dolní Dvořiště - ONO I","lat":48.651981,"lng":14.4536964},
  {"id":22,"name":"ČS Dolní Dvořiště - ONO II","lat":48.6459347,"lng":14.4538144},
  {"id":23,"name":"ČS Církvice u Kutné Hory","lat":49.9487785,"lng":15.3291859},
  {"id":24,"name":"ČS Sukorady u Mladé Boleslavi","lat":50.4275383,"lng":15.048262},
  {"id":25,"name":"ČS Podolí u Písku","lat":49.3516897,"lng":14.2900171},
  {"id":26,"name":"ČS Planá nad Lužnicí","lat":49.3548664,"lng":14.7030452},
  {"id":27,"name":"ČS Spytihněv","lat":49.1333187,"lng":17.4899132},
  {"id":28,"name":"ČS Mošnov","lat":49.6854019,"lng":18.1346734},
  {"id":29,"name":"ČS Kojetice-Tůmovka","lat":50.2253914,"lng":14.4988414},
  {"id":30,"name":"ČS Cvikov","lat":50.7840859,"lng":14.6158941},
  {"id":31,"name":"ČS Chomutov - Přečaply","lat":50.423531,"lng":13.470749},
  {"id":32,"name":"ČS Zádveřice u Zlína","lat":49.2096363,"lng":17.8111775},
  {"id":33,"name":"ČS Brno-Popovice","lat":49.099558,"lng":16.6095907},
  {"id":34,"name":"ČS Roudnice nad Labem","lat":50.4255272,"lng":14.2393889},
  {"id":35,"name":"ČS Vysokov u Náchoda","lat":50.3983448,"lng":16.1063828},
  {"id":36,"name":"ČS Praha - Štěrboholy","lat":50.0699486,"lng":14.5417218},
  {"id":37,"name":"ČS Řasnice-Strážný","lat":48.9125794,"lng":13.7630004},
  {"id":38,"name":"ČS Břest u Kroměříže","lat":49.3477293,"lng":17.4464699},
  {"id":39,"name":"ČS Vojtanov","lat":50.1627,"lng":12.3167131},
  {"id":40,"name":"ČS Dobkovice u Děčína","lat":50.7210908,"lng":14.1865775},
  {"id":41,"name":"ČS Březno u Loun D7","lat":50.3518776,"lng":13.725684},
  {"id":42,"name":"ČS Brno-Hviezdoslavova","lat":49.183302,"lng":16.6714723},
  {"id":43,"name":"ČS Studénka - D1 exit 336","lat":49.7095535,"lng":18.0413436},
  {"id":44,"name":"ČS Ostrov nad Ohří","lat":50.3199113,"lng":12.9461271},
  {"id":45,"name":"ČS Chlumčany u Přeštic","lat":49.6289004,"lng":13.3299895},
  {"id":46,"name":"ČS Rumburk","lat":50.9493663,"lng":14.5787406}
]
